[{"area_id":40045074,"name":"路環發電廠","type":35,"shape":2,"lat":22.137775,"lng":113.578611,"radius":160,"level":2,"begin_at":0,"end_at":0,"country":"MO","city":"","polygon_points":null,"color":"#DE4329","url":"","sub_areas":[{"color":"#DE4329","height":0,"level":2,"lat":22.137775,"lng":113.578611,"radius":160,"polygon_points":null,"shape":0}],"description":"","height":0,"address":"","data_source":2},{"area_id":40045125,"name":"中央人民政府駐澳門特別行政區聯絡辦公室","type":35,"shape":2,"lat":22.194472,"lng":113.549528,"radius":82,"level":2,"begin_at":0,"end_at":0,"country":"MO","city":"","polygon_points":null,"color":"#DE4329","url":"","sub_areas":[{"color":"#DE4329","height":0,"level":2,"lat":22.194472,"lng":113.549528,"radius":82,"polygon_points":null,"shape":0}],"description":"","height":0,"address":"","data_source":2},{"area_id":40047712,"name":"九澳油庫","type":35,"shape":2,"lat":22.132097,"lng":113.589364,"radius":375,"level":2,"begin_at":0,"end_at":0,"country":"MO","city":"","polygon_points":null,"color":"#DE4329","url":"","sub_areas":[{"color":"#DE4329","height":0,"level":2,"lat":22.132097,"lng":113.589364,"radius":375,"polygon_points":null,"shape":0}],"description":"","height":0,"address":"","data_source":2},{"area_id":40045085,"name":"路環監獄","type":35,"shape":2,"lat":22.119444,"lng":113.554972,"radius":102,"level":2,"begin_at":0,"end_at":0,"country":"MO","city":"","polygon_points":null,"color":"#DE4329","url":"","sub_areas":[{"color":"#DE4329","height":0,"level":2,"lat":22.119444,"lng":113.554972,"radius":102,"polygon_points":null,"shape":0}],"description":"","height":0,"address":"","data_source":2},{"area_id":40045115,"name":"氹仔碼頭直昇機場","type":35,"shape":2,"lat":22.166063,"lng":113.577222,"radius":1000,"level":2,"begin_at":0,"end_at":0,"country":"MO","city":"","polygon_points":null,"color":"#DE4329","url":"","sub_areas":[{"color":"#DE4329","height":0,"level":2,"lat":22.166063,"lng":113.577222,"radius":1000,"polygon_points":null,"shape":0}],"description":"","height":0,"address":"","data_source":2},{"area_id":40045116,"name":"禮賓府","type":35,"shape":2,"lat":22.184917,"lng":113.534111,"radius":74,"level":2,"begin_at":0,"end_at":0,"country":"MO","city":"","polygon_points":null,"color":"#DE4329","url":"","sub_areas":[{"color":"#DE4329","height":0,"level":2,"lat":22.184917,"lng":113.534111,"radius":74,"polygon_points":null,"shape":0}],"description":"","height":0,"address":"","data_source":2},{"area_id":40045081,"name":"澳門國際機場","type":35,"shape":2,"lat":22.15692370775959,"lng":113.58691900540002,"radius":4805,"level":2,"begin_at":0,"end_at":0,"country":"MO","city":"","polygon_points":null,"color":"#DE4329","url":"","sub_areas":[{"color":"#DE4329","height":0,"level":2,"lat":22.149352796463386,"lng":113.59149627585414,"radius":4805,"polygon_points":[{"lng":113.56943549545247,"lat":22.187438387481663},{"lng":113.5826009526844,"lat":22.191266505206443},{"lng":113.61354512053742,"lat":22.11126424090206},{"lng":113.5995779628733,"lat":22.107211017726115},{"lng":113.56943549545247,"lat":22.187438387481663}],"shape":1}],"description":"","height":0,"address":"","data_source":2},{"area_id":40045070,"name":"中華人民共和國外交部駐澳門特別行政區特派員公署","type":35,"shape":2,"lat":22.195889,"lng":113.553111,"radius":102,"level":2,"begin_at":0,"end_at":0,"country":"MO","city":"","polygon_points":null,"color":"#DE4329","url":"","sub_areas":[{"color":"#DE4329","height":0,"level":2,"lat":22.195889,"lng":113.553111,"radius":102,"polygon_points":null,"shape":0}],"description":"","height":0,"address":"","data_source":2},{"area_id":40045086,"name":"澳門自來水廠","type":35,"shape":2,"lat":22.211361,"lng":113.540472,"radius":109,"level":2,"begin_at":0,"end_at":0,"country":"MO","city":"","polygon_points":null,"color":"#DE4329","url":"","sub_areas":[{"color":"#DE4329","height":0,"level":2,"lat":22.211361,"lng":113.540472,"radius":109,"polygon_points":null,"shape":0}],"description":"","height":0,"address":"","data_source":2},{"area_id":40045106,"name":"橫琴梧桐樹直昇機坪","type":35,"shape":2,"lat":22.147611,"lng":113.5445,"radius":1000,"level":2,"begin_at":0,"end_at":0,"country":"MO","city":"","polygon_points":null,"color":"#DE4329","url":"","sub_areas":[{"color":"#DE4329","height":0,"level":2,"lat":22.147611,"lng":113.5445,"radius":1000,"polygon_points":null,"shape":0}],"description":"","height":0,"address":"","data_source":2},{"area_id":40045114,"name":"國際金融中心直昇機坪","type":35,"shape":2,"lat":22.167244,"lng":113.529791,"radius":1000,"level":2,"begin_at":0,"end_at":0,"country":"MO","city":"","polygon_points":null,"color":"#DE4329","url":"","sub_areas":[{"color":"#DE4329","height":0,"level":2,"lat":22.167244,"lng":113.529791,"radius":1000,"polygon_points":null,"shape":0}],"description":"","height":0,"address":"","data_source":2},{"area_id":40045113,"name":"澳門外港直昇機場","type":35,"shape":2,"lat":22.196972,"lng":113.559167,"radius":1000,"level":2,"begin_at":0,"end_at":0,"country":"MO","city":"","polygon_points":null,"color":"#DE4329","url":"","sub_areas":[{"color":"#DE4329","height":0,"level":2,"lat":22.196972,"lng":113.559167,"radius":1000,"polygon_points":null,"shape":0}],"description":"","height":0,"address":"","data_source":2},{"area_id":40047711,"name":"九澳監獄","type":35,"shape":2,"lat":22.135294,"lng":113.577547,"radius":222,"level":2,"begin_at":0,"end_at":0,"country":"MO","city":"","polygon_points":null,"color":"#DE4329","url":"","sub_areas":[{"color":"#DE4329","height":0,"level":2,"lat":22.135294,"lng":113.577547,"radius":222,"polygon_points":null,"shape":0}],"description":"","height":0,"address":"","data_source":2},{"area_id":40045092,"name":"澳門特區政府總部","type":35,"shape":2,"lat":22.19,"lng":113.537917,"radius":98,"level":2,"begin_at":0,"end_at":0,"country":"MO","city":"","polygon_points":null,"color":"#DE4329","url":"","sub_areas":[{"color":"#DE4329","height":0,"level":2,"lat":22.19,"lng":113.537917,"radius":98,"polygon_points":null,"shape":0}],"description":"","height":0,"address":"","data_source":2},{"area_id":40045134,"name":"小潭山導航台","type":35,"shape":2,"lat":22.161556,"lng":113.548611,"radius":107,"level":2,"begin_at":0,"end_at":0,"country":"MO","city":"","polygon_points":null,"color":"#DE4329","url":"","sub_areas":[{"color":"#DE4329","height":0,"level":2,"lat":22.161556,"lng":113.548611,"radius":107,"polygon_points":null,"shape":0}],"description":"","height":0,"address":"","data_source":2},{"area_id":40045144,"name":"中國人民解放軍駐澳門部隊總部大樓","type":35,"shape":2,"lat":22.193611,"lng":113.550722,"radius":107,"level":2,"begin_at":0,"end_at":0,"country":"MO","city":"","polygon_points":null,"color":"#DE4329","url":"","sub_areas":[{"color":"#DE4329","height":0,"level":2,"lat":22.193611,"lng":113.550722,"radius":107,"polygon_points":null,"shape":0}],"description":"","height":0,"address":"","data_source":2},{"area_id":40045077,"name":"少年感化院","type":35,"shape":2,"lat":22.118694,"lng":113.554472,"radius":65,"level":2,"begin_at":0,"end_at":0,"country":"MO","city":"","polygon_points":null,"color":"#DE4329","url":"","sub_areas":[{"color":"#DE4329","height":0,"level":2,"lat":22.118694,"lng":113.554472,"radius":65,"polygon_points":null,"shape":0}],"description":"","height":0,"address":"","data_source":2},{"area_id":40045139,"name":"中央人民政府駐澳軍營","type":35,"shape":2,"lat":22.151722,"lng":113.557194,"radius":189,"level":2,"begin_at":0,"end_at":0,"country":"MO","city":"","polygon_points":null,"color":"#DE4329","url":"","sub_areas":[{"color":"#DE4329","height":0,"level":2,"lat":22.151722,"lng":113.557194,"radius":189,"polygon_points":null,"shape":0}],"description":"","height":0,"address":"","data_source":2},{"area_id":40045121,"name":"終審法院","type":35,"shape":2,"lat":22.183083,"lng":113.540472,"radius":50,"level":2,"begin_at":0,"end_at":0,"country":"MO","city":"","polygon_points":null,"color":"#DE4329","url":"","sub_areas":[{"color":"#DE4329","height":0,"level":2,"lat":22.183083,"lng":113.540472,"radius":50,"polygon_points":null,"shape":0}],"description":"","height":0,"address":"","data_source":2},{"area_id":40045098,"name":"澳門中聯辦接待處","type":35,"shape":2,"lat":22.186778,"lng":113.536056,"radius":70,"level":2,"begin_at":0,"end_at":0,"country":"MO","city":"","polygon_points":null,"color":"#DE4329","url":"","sub_areas":[{"color":"#DE4329","height":0,"level":2,"lat":22.186778,"lng":113.536056,"radius":70,"polygon_points":null,"shape":0}],"description":"","height":0,"address":"","data_source":2},{"area_id":40045108,"name":"立法會大樓","type":35,"shape":2,"lat":22.183472,"lng":113.54,"radius":50,"level":2,"begin_at":0,"end_at":0,"country":"MO","city":"","polygon_points":null,"color":"#DE4329","url":"","sub_areas":[{"color":"#DE4329","height":0,"level":2,"lat":22.183472,"lng":113.54,"radius":50,"polygon_points":null,"shape":0}],"description":"","height":0,"address":"","data_source":2}]